{
  "results": [
    {
      "name": "DONALD F. SCOTT VILLAS",
      "address": "2441 W 6th Ct",
      "city": "Hialeah",
      "state": "FL",
      "zip": 33010,
      "lat": 25.84376837,
      "lng": -80.29424594
    },
    {
      "name": "HENRY MILANDER MANOR",
      "address": "815 W 75th St",
      "city": "Hialeah",
      "state": "FL",
      "zip": 33014,
      "lat": 25.89115329,
      "lng": -80.30025201
    },
    {
      "name": "HOFFMAN GARDENS",
      "address": "900 W 77th St",
      "city": "Hialeah",
      "state": "FL",
      "zip": 33014,
      "lat": 25.89164227,
      "lng": -80.30212276
    },
    {
      "name": "LA ESPERANZA",
      "address": "1770 W 44th Pl",
      "city": "Hialeah",
      "state": "FL",
      "zip": 33012,
      "lat": 25.86177787,
      "lng": -80.31798602
    },
    {
      "name": "RUTH A. TINSMAN PAVILION",
      "address": "6545 W 24th Ave Apt 201",
      "city": "Hialeah",
      "state": "FL",
      "zip": 33016,
      "lat": 25.88185841,
      "lng": -80.33090737
    },
    {
      "name": "Raul L. Martinez Pavilion",
      "address": "6333 W 24th Ave",
      "city": "Hialeah",
      "state": "FL",
      "zip": 33016,
      "lat": 25.87998734,
      "lng": -80.33040615
    },
    {
      "name": "VERNON ASHLEY PLAZA",
      "address": "70 E 7th St",
      "city": "Hialeah",
      "state": "FL",
      "zip": 33010,
      "lat": 25.82772092,
      "lng": -80.2800916
    },
    {
      "name": "VIVIAN VILLAS",
      "address": "4650 W 12th Ave",
      "city": "Hialeah",
      "state": "FL",
      "zip": 33012,
      "lat": 25.86470945,
      "lng": -80.30764882
    },
    {
      "name": "HOMESTEAD GARDENS",
      "address": "26801 SW 142nd Ave",
      "city": "Homestead",
      "state": "FL",
      "zip": 33032,
      "lat": 25.51720719,
      "lng": -80.41924066
    },
    {
      "name": "Site 320",
      "address": "15201 SW 288th St",
      "city": "Homestead",
      "state": "FL",
      "zip": 33033,
      "lat": 25.4999345,
      "lng": -80.43750906
    },
    {
      "name": "Site 330",
      "address": "1586 SW 4th St",
      "city": "Homestead",
      "state": "FL",
      "zip": 33030,
      "lat": 25.46582479,
      "lng": -80.49769274
    },
    {
      "name": "Site 351",
      "address": "26206 SW 139th Ave",
      "city": "Homestead",
      "state": "FL",
      "zip": 33032,
      "lat": 25.52360728,
      "lng": -80.41721221
    },
    {
      "name": "Dante Fascell",
      "address": "2929 NW 18th Ave",
      "city": "Miami",
      "state": "FL",
      "zip": 33142,
      "lat": 25.80369817,
      "lng": -80.22453707
    },
    {
      "name": "GWEN CHERRY/NEW HAVEN GDN",
      "address": "7155 NW 22nd Ave",
      "city": "Miami",
      "state": "FL",
      "zip": 33147,
      "lat": 25.78879459,
      "lng": -80.23706848
    },
    {
      "name": "Green Turnkey - Rehab",
      "address": "1500 NW 7th Ct",
      "city": "Miami",
      "state": "FL",
      "zip": 33136,
      "lat": 25.789645,
      "lng": -80.208073
    },
    {
      "name": "Helen Sawyer Plaza",
      "address": "1150 NW 11th Street Rd",
      "city": "Miami",
      "state": "FL",
      "zip": 33136,
      "lat": 25.7848338,
      "lng": -80.20972771
    },
    {
      "name": "Jack Orr Plaza I",
      "address": "550 NW 5th Street",
      "city": "Miami",
      "state": "FL",
      "zip": 33128,
      "lat": 25.77819393,
      "lng": -80.20376294
    },
    {
      "name": "Scott Carver IIc",
      "address": "7343 Northwest 23rd Court",
      "city": "Miami",
      "state": "FL",
      "zip": 33147,
      "lat": 25.84025,
      "lng": -80.234444
    },
    {
      "name": "Scott Carver Phases 2A &amp; B",
      "address": "2144 NW 75th St",
      "city": "Miami",
      "state": "FL",
      "zip": 33147,
      "lat": 25.84279963,
      "lng": -80.23369525
    },
    {
      "name": "Site 110",
      "address": "150 NE 69th St",
      "city": "Miami",
      "state": "FL",
      "zip": 33138,
      "lat": 25.83831493,
      "lng": -80.19338686
    },
    {
      "name": "Site 120",
      "address": "2200 NW 54th St",
      "city": "Miami",
      "state": "FL",
      "zip": 33142,
      "lat": 25.82317769,
      "lng": -80.23420013
    },
    {
      "name": "Site 130",
      "address": "191 NE 75th St",
      "city": "Miami",
      "state": "FL",
      "zip": 33138,
      "lat": 25.84431699,
      "lng": -80.19323064
    },
    {
      "name": "Site 140",
      "address": "2440 NW 63rd St",
      "city": "Miami",
      "state": "FL",
      "zip": 33147,
      "lat": 25.83200929,
      "lng": -80.23759643
    },
    {
      "name": "Site 150",
      "address": "950 NW 95th St",
      "city": "Miami",
      "state": "FL",
      "zip": 33150,
      "lat": 25.86071347,
      "lng": -80.21323245
    },
    {
      "name": "Site 170",
      "address": "1375 NW 62nd St",
      "city": "Miami",
      "state": "FL",
      "zip": 33147,
      "lat": 25.83260641,
      "lng": -80.21973833
    },
    {
      "name": "Site 180",
      "address": "200 NW 55th St",
      "city": "Miami",
      "state": "FL",
      "zip": 33127,
      "lat": 25.82623433,
      "lng": -80.20047782
    },
    {
      "name": "Site 190",
      "address": "2404 NW 64th St",
      "city": "Miami",
      "state": "FL",
      "zip": 33147,
      "lat": 25.83269119,
      "lng": -80.23814971
    },
    {
      "name": "Site 210",
      "address": "3000 NW 3rd Ave",
      "city": "Miami",
      "state": "FL",
      "zip": 33127,
      "lat": 25.80495661,
      "lng": -80.20172939
    },
    {
      "name": "Site 220",
      "address": "840 NW 5th Ave",
      "city": "Miami",
      "state": "FL",
      "zip": 33136,
      "lat": 25.78234839,
      "lng": -80.2051173
    },
    {
      "name": "Site 221",
      "address": "357 NW 3rd St",
      "city": "Miami",
      "state": "FL",
      "zip": 33128,
      "lat": 25.77819393,
      "lng": -80.20376294
    },
    {
      "name": "Site 230 and 232",
      "address": "750 NW 18th Ter",
      "city": "Miami",
      "state": "FL",
      "zip": 33136,
      "lat": 25.79271548,
      "lng": -80.20798399
    },
    {
      "name": "Site 240",
      "address": "800 NW 13th Ave",
      "city": "Miami",
      "state": "FL",
      "zip": 33125,
      "lat": 25.78174039,
      "lng": -80.21720166
    },
    {
      "name": "Site 241",
      "address": "1403 NW 7th St",
      "city": "Miami",
      "state": "FL",
      "zip": 33125,
      "lat": 25.78195111,
      "lng": -80.21845668
    },
    {
      "name": "Site 250",
      "address": "1919 NW 29th St",
      "city": "Miami",
      "state": "FL",
      "zip": 33142,
      "lat": 25.80368697,
      "lng": -80.22471154
    },
    {
      "name": "Site 260",
      "address": "2920 NW 18th Ave",
      "city": "Miami",
      "state": "FL",
      "zip": 33142,
      "lat": 25.80351024,
      "lng": -80.22618792
    },
    {
      "name": "Site 270",
      "address": "935 SW 30th Ave",
      "city": "Miami",
      "state": "FL",
      "zip": 33135,
      "lat": 25.76334339,
      "lng": -80.24310118
    },
    {
      "name": "Site 280",
      "address": "490 NE 2nd Ave",
      "city": "Miami",
      "state": "FL",
      "zip": 33132,
      "lat": 25.77871223,
      "lng": -80.19073904
    },
    {
      "name": "Site 291",
      "address": "2050 NW 24th St",
      "city": "Miami",
      "state": "FL",
      "zip": 33142,
      "lat": 25.79892034,
      "lng": -80.22999351
    },
    {
      "name": "Site 340",
      "address": "10139 Circle Plz E",
      "city": "Miami",
      "state": "FL",
      "zip": 33157,
      "lat": 25.60895413,
      "lng": -80.35541129
    },
    {
      "name": "Site 361",
      "address": "11345 SW 190th Ln",
      "city": "Miami",
      "state": "FL",
      "zip": 33157,
      "lat": 25.58988447,
      "lng": -80.37562473
    },
    {
      "name": "Stirrup Plaza I",
      "address": "3150 Mundy Street",
      "city": "Miami",
      "state": "FL",
      "zip": 33133,
      "lat": 25.7324831,
      "lng": -80.25297709
    },
    {
      "name": "Ward Towers Assisted Living Facility",
      "address": "5301 NW 23 Ave",
      "city": "Miami",
      "state": "FL",
      "zip": 33142,
      "lat": 25.82382342,
      "lng": -80.23428358
    },
    {
      "name": "REBECCA TOWERS",
      "address": "150 Alton Rd",
      "city": "Miami Beach",
      "state": "FL",
      "zip": 33139,
      "lat": 25.76986061,
      "lng": -80.13838786
    },
    {
      "name": "GWEN CHERRY/NEW HAVEN GDN",
      "address": "4190 NW 200th St",
      "city": "Miami Gardens",
      "state": "FL",
      "zip": 33055,
      "lat": 25.83962584,
      "lng": -80.23174386
    },
    {
      "name": "Site 160",
      "address": "16850 NW 55th Ave",
      "city": "Miami Gardens",
      "state": "FL",
      "zip": 33055,
      "lat": 25.9263131,
      "lng": -80.29134522
    },
    {
      "name": "Site 310 and 311",
      "address": "5960 SW 66th Ter",
      "city": "South Miami",
      "state": "FL",
      "zip": 33143,
      "lat": 25.73231238,
      "lng": -80.25242141
    },
    {
      "name": "South Miami Plaza",
      "address": "6701 SW 62nd Avenue",
      "city": "South Miami",
      "state": "FL",
      "zip": 33143,
      "lat": 25.70839479,
      "lng": -80.29308203
    }
  ]
}
